[
  {"id":14,"shipment_number":"001345526016","name":"Bagya Ramadan","mobile":"303 0974 864","address":"Ki. Gremet No. 730","latitude":-6.870594,"longitude":107.541633},
  {"id":15,"shipment_number":"001345526017","name":"Ana Nasyidah","mobile":"522 3177 406","address":"Ds. Asia Afrika No. 222","latitude":-6.861019,"longitude":107.543539},
  {"id":18,"shipment_number":"001345526018","name":"Candra Setiawan","mobile":"0369 4442 412","address":"Ki. Eka No. 621","latitude":-6.873092,"longitude":107.529980},
  {"id":19,"shipment_number":"001345526019","name":"Emong Waskita","mobile":"763 4647 3562","address":"Ds. Antapani Lama No. 903","latitude":-6.869688,"longitude":107.533106},
  {"id":20,"shipment_number":"001345526020","name":"Jasmin Nuraini","mobile":" 346 3871 065","address":"Kpg. Sumpah Pemuda No. 15","latitude":-6.870341,"longitude":107.539680}
]